time,lat,lon,h,x,y,z,speed,accel_x,accel_y,accel_z,roll,pitch,yaw,heading
0.295113,37.63267229,126.970563,49.56781987,-358.73,6297.06,29.44,6.36,0.049433333,2.1069,-0.948833333,0.108029,0.121265,0.042186,26.22
0.53514,37.63268022,126.9705579,49.55871662,-359.18,6297.94,29.43,6.67,-0.11,2.070333333,0.804074074,0.0258,-0.02542,0.035412,26.54
0.775695,37.63268833,126.9705524,49.56963502,-359.66,6298.84,29.44,6.68,-7.387392857,-4.193571429,0.055392857,-0.160434,0.0113,0.329789,27.46
1.16695,37.63269517,126.9705455,49.57042223,-360.27,6299.6,29.44,6.16,-2.887448276,-2.717275862,0.065275862,-0.098673,-0.01416,0.986159,34.07
1.255695,37.63270049,126.9705375,49.57104681,-360.98,6300.19,29.44,6.08,-0.74862069,-0.158206897,-0.090655172,0.017542,0.024996,1.182217,43.9
1.495695,37.63270454,126.9705283,49.56153849,-361.79,6300.64,29.43,6.15,-0.213137931,0.529413793,-0.107655172,0.016301,-0.002915,1.211529,54.54
1.736237,37.63270743,126.9705183,49.55190547,-362.67,6300.96,29.42,6.36,1.743285714,2.111392857,0.052678571,0.023037,0.036196,1.074139,64.47
1.978763,37.6327095,126.9705076,49.5321874,-363.62,6301.19,29.4,6.6,1.803444444,1.762111111,0.040851852,-0.020227,-0.00161,0.86093,72.7
2.21879,37.63271085,126.9704961,49.52239362,-364.81,6301.35,29.39,6.79,1.160206897,1.299827586,-0.525655172,-0.036848,0.048063,0.669118,79.24
2.42879,37.63271157,126.9704842,49.50253294,-365.68,6301.42,29.37,7.26,1.530068966,6.563310345,-0.062448276,-0.033067,0.070372,0.447504,83.95
2.668791,37.63271202,126.9704711,49.49264902,-366.84,6301.47,29.36,8.23,1.44862963,6.666888889,-0.247148148,-0.025997,0.018682,0.258016,86.81
2.970867,37.63271247,126.970456,49.48277511,-368.17,6301.52,29.35,9.23,0.932178571,6.584214286,-0.024392857,0.005021,-0.028495,0.105039,88.24
3.208866,37.63271283,126.97044,49.4628962,-369.58,6301.56,29.33,10.18,0.37784,6.56632,0.26556,0.014941,-0.039698,0.012654,88.63
3.449866,37.63271319,126.9704224,49.45302631,-371.14,6301.6,29.32,11.06,-8.484038462,4.186653846,-0.135653846,-0.011527,-0.191334,0.095905,88.66
3.688868,37.63271283,126.9704037,49.43308279,-372.79,6301.56,29.3,11.8,2.73462963,6.695444444,0.247259259,0.002937,-0.06751,0.343029,91.45
3.928866,37.63271193,126.9703849,49.42308082,-374.45,6301.46,29.29,11.3,-2.226481481,-3.79362963,0.719259259,0.088234,-0.049017,0.391285,94.23
4.184373,37.63270994,126.970367,49.40295567,-376.03,6301.24,29.27,10.68,-1.199730769,-4.349346154,0.293269231,0.077954,-0.08189,0.661798,98.67
4.425373,37.63270661,126.9703498,49.38267875,-377.55,6300.87,29.25,10.95,1.186923077,2.445807692,-0.309769231,-0.05535,0.009733,0.722223,104.73
4.665373,37.63270192,126.9703322,49.36225538,-379.1,6300.35,29.23,11.35,1.326153846,2.99,-0.319153846,-0.059347,0.009479,0.567487,110.13
4.904373,37.63269607,126.9703143,49.34170543,-380.68,6299.7,29.21,11.82,0.798148148,3.387037037,-0.154074074,-0.020092,-0.00999,0.368643,113.96
5.144373,37.63268931,126.9702959,49.32105928,-382.3,6298.95,29.19,12.33,0.188518519,3.507925926,-0.034333333,-0.004964,-0.006521,0.215924,116.29
5.3844,37.63268165,126.970277,49.3003176,-383.97,6298.1,29.17,12.86,-0.248222222,3.597259259,0.107074074,0.002352,-0.012189,0.134728,117.67
5.624372,37.63267354,126.9702577,49.28952937,-385.68,6297.2,29.16,13.39,-0.229730769,3.603423077,-0.063730769,0.001565,-0.004832,0.112106,118.67
5.865373,37.63266462,126.9702376,49.27865625,-387.45,6296.21,29.15,13.93,-0.684,3.842666667,-0.074666667,-0.016433,-0.034465,0.117439,119.62
6.107374,37.63265507,126.9702171,49.26771692,-389.26,6295.15,29.14,14.45,-0.862884615,3.319961538,-0.052,-0.010069,-0.032906,0.202939,120.97
6.345372,37.63264453,126.9701962,49.27667124,-391.1,6293.98,29.15,14.91,-0.013333333,2.893333333,-0.243185185,-0.010999,0.002207,0.299638,123.2
6.586372,37.63263308,126.9701756,49.28552611,-392.92,6292.71,29.16,15.31,0.059807692,2.587576923,-0.014576923,-0.01988,0.005874,0.356446,126.04
6.827393,37.63262065,126.9701554,49.30427107,-394.71,6291.33,29.18,15.65,0.30668,2.20144,1.10156,0.025401,0.023076,0.36752,129.13
7.67901,37.63260713,126.9701354,49.32289629,-396.47,6289.83,29.2,15.94,0.058269231,2.362615385,-0.570076923,0.009052,-0.017288,0.359109,132.16
7.3089,37.63259236,126.9701157,49.34138265,-398.21,6288.19,29.22,16.37,-0.690666667,2.875148148,0.083444444,0.011149,-0.008142,0.38781,135.36
7.563901,37.63257641,126.9700968,49.37973701,-399.88,6286.42,29.26,16.74,-0.32964,2.37884,0.03188,-0.009201,0.010204,0.416983,138.78
7.803901,37.63255929,126.9700788,49.42795879,-401.47,6284.52,29.31,17.07,-0.197592593,2.081925926,0.377148148,-0.054798,0.016686,0.40904,142.28
8.44931,37.632541,126.9700618,49.47604742,-402.97,6282.49,29.36,17.38,0.097,2.248076923,-0.296384615,-0.025179,-0.013706,0.390969,145.65
8.284409,37.63252136,126.9700456,49.52398447,-404.4,6280.31,29.41,17.74,-0.260037037,2.346259259,0.038111111,0.012017,0.015512,0.351281,148.76
8.524408,37.6325009,126.9700305,49.58182739,-405.73,6278.04,29.47,18.08,-0.231259259,2.322888889,0.037777778,0.005308,0.028385,0.327914,151.62
8.764409,37.63247919,126.9700162,49.64952876,-407.2,6275.2,29.55,18.43,-0.262428571,2.306928571,-0.177928571,0.00936,0.021484,0.320406,154.36
9.4408,37.63245648,126.9700031,49.7071164,-408.15,6273.11,29.62,18.75,-0.177517241,1.967827586,-0.148448276,0.01024,0.014213,0.321062,157.11
9.244409,37.6324327,126.9699909,49.78458179,-409.23,6270.47,29.68,19.02,0.01037931,1.673137931,-0.074793103,-0.005629,0.022099,0.306145,159.84
9.484409,37.63240828,126.96998,49.86197175,-410.19,6267.76,29.76,19.24,-0.095310345,1.199448276,0.254482759,-0.025993,0.010068,0.274962,162.33
9.72441,37.63238323,126.9699703,49.93928761,-411.2,6264.47,29.85,19.39,-0.279433333,0.843,-0.035466667,-0.008481,-0.000625,0.247906,164.57
9.964409,37.63235755,126.9699615,50.01653007,-411.82,6261.62,29.94,19.49,-0.240862069,0.573,-0.042206897,-0.007666,-0.000814,0.227403,166.63
10.204409,37.63233133,126.9699539,50.10370837,-412.49,6258.69,30.03,19.56,-0.144387097,0.361096774,0.041322581,-0.007982,0.000484,0.205164,168.51
10.445409,37.63230016,126.9699462,50.21034765,-413.17,6255.76,30.12,19.61,-0.147103448,0.224586207,0.049482759,-0.005323,-0.000439,0.177687,170.18
10.684917,37.63227808,126.9699416,50.28796449,-413.66,6252.78,30.22,19.63,-0.196517241,0.138724138,-0.14962069,-0.007485,0.004589,0.149253,171.6
10.924917,37.63225114,126.9699366,50.38505347,-414.02,6250.32,30.3,19.65,0.136266667,0.0715,0.080066667,-0.005212,0.064877,0.124969,172.8
11.164918,37.63222429,126.9699323,50.47214981,-414.4,6247.34,30.39,19.66,-0.210758621,0.08362069,0.411310345,-0.026116,0.041993,0.097325,173.78
11.404917,37.63219726,126.9699286,50.5492247,-414.73,6244.34,30.47,19.67,-0.450433333,0.062133333,-0.109866667,-0.006401,-0.038877,0.081617,174.54
11.644917,37.6321705,126.9699253,50.62632786,-415.02,6240.83,30.57,19.68,-0.250214286,0.045571429,-0.054821429,-0.004726,-0.029687,0.07843,175.21
11.884917,37.63214338,126.9699225,50.70339058,-415.31,6237.82,30.65,19.68,-0.083103448,0.037137931,-0.073103448,-0.028756,-0.038136,0.077587,175.9
12.124917,37.63211635,126.9699201,50.78046194,-415.48,6235.36,30.71,19.69,0.035310345,0.047482759,0.229448276,-0.038026,-0.021958,0.073098,176.56
12.364917,37.63208941,126.969918,50.84754258,-415.66,6232.37,30.78,19.7,0.062344828,0.052344828,-0.229068966,0.015815,0.016593,0.061937,177.15
12.604917,37.63206229,126.9699162,50.90460373,-415.82,6229.36,30.86,19.71,-0.017931034,0.024931034,-0.025275862,0.00602,0.025101,0.045526,177.62
12.845917,37.63203526,126.9699148,50.98167415,-415.97,6225.81,30.93,19.71,-0.185,-0.001965517,-0.12737931,0.008274,0.001184,0.028152,177.93
13.85917,37.63200805,126.9699134,51.03872576,-416.07,6223.34,31,19.71,-0.363833333,0.036,0.910166667,-0.081157,-0.014792,0.022998,178.12
13.325917,37.63198084,126.9699123,51.09577751,-416.17,6220.32,31.04,19.72,-0.133793103,0.084103448,-0.290344828,-0.011481,-0.023665,0.051175,178.46
13.565917,37.6319539,126.9699115,51.13285808,-416.24,6217.33,31.08,19.46,-0.385357143,-4.904821429,0.223214286,-0.01546,0.003024,0.092095,179.06
13.805918,37.63192804,126.9699113,51.17005406,-416.26,6214.46,31.12,18.55,-0.071655172,-6.914448276,0.506586207,-0.031752,0.030365,0.180016,180.29
14.45917,37.63190362,126.9699117,51.20740372,-416.22,6211.75,31.16,17.43,0.012758621,-7.700275862,0.857896552,-0.082881,-0.010441,0.243457,182.21
14.285917,37.63188083,126.9699132,51.22492442,-416.09,6209.22,31.18,16.58,-0.026166667,-4.077133333,-0.664566667,-0.008404,-0.030087,0.277397,184.5
14.52708,37.63185867,126.9699158,51.23250795,-415.86,6206.76,31.19,16.44,-0.485714286,-0.394214286,-1.1075,0.004756,0.019923,0.292333,186.94
14.76708,37.63183659,126.9699198,51.24009439,-415.44,6203.87,31.2,16.38,-0.325448276,-0.387724138,-0.310413793,-0.043542,0.003392,0.346312,189.71
15.708,37.63181461,126.9699251,51.23768374,-414.93,6201.42,31.2,16.39,-0.208133333,1.7629,-0.561866667,0.010715,0.026591,0.40325,193.02
15.24708,37.63179262,126.9699323,51.23526303,-414.25,6198.97,31.2,16.64,-1.889275862,1.290758621,0.248965517,-0.061863,0.019675,0.463599,196.81
15.487079,37.63177091,126.9699419,51.23285961,-413.56,6197.02,31.2,16.78,0.719206897,0.827793103,-0.27437931,-0.059073,0.002609,0.620171,201.82
15.729125,37.63174965,126.9699539,51.2304917,-412.5,6194.24,31.2,16.93,0.994344828,1.199586207,-0.512655172,-0.029718,-0.023702,0.59668,207.29
15.968126,37.63172929,126.9699677,51.21821191,-411.28,6191.98,31.19,17.25,0.203551724,2.383068966,0.193413793,-0.003611,-0.036776,0.388452,211.43
16.210143,37.63170893,126.9699836,51.2059216,-409.6,6189.72,31.18,17.66,-1.57,3.007034483,0.39437931,0.041938,0.036057,0.261494,214.1
16.449143,37.63168829,126.9700015,51.2135917,-408.3,6187.85,31.19,18.12,-0.927032258,3.024193548,0.188677419,0.045966,0.096884,0.227556,216.22
16.689143,37.63166775,126.9700209,51.2612638,-406.58,6185.57,31.24,18.59,-0.085566667,2.974533333,0.3297,0.004001,0.030836,0.197172,218.14
16.929155,37.63164739,126.9700413,51.31895155,-404.78,6183.31,31.3,18.99,-0.458068966,2.267689655,0.807793103,0.017154,-0.20068,0.142392,219.58
17.168661,37.63162721,126.9700625,51.31665566,-402.91,6181.07,31.3,19.23,0.624689655,1.561724138,1.016275862,-0.07339,-0.120011,0.176771,220.95
17.415172,37.63160361,126.9700887,51.25396432,-400.6,6178.45,31.24,19.22,-0.229222222,-4.436703704,0.220518519,0.095327,0.00547,0.156695,222.83
17.6502,37.63158829,126.9701067,51.22221335,-399.01,6176.75,31.21,18.55,-0.987827586,-6.133896552,1.517896552,0.147929,-0.112808,0.106169,223.67
17.890169,37.63157081,126.9701279,51.19021277,-396.83,6174.5,31.17,16.98,0.452142857,-26.165,1.824642857,-0.002932,-0.074848,0.114173,224.63
18.13017,37.63155667,126.9701456,51.17859169,-395.58,6173.24,31.17,13.41,1.976214286,-22.62992857,-0.887857143,-0.035247,0.012237,0.09885,225.63
18.370171,37.63154559,126.9701594,51.19732232,-394.36,6172.01,31.19,10.11,-0.655285714,-19.47035714,0.706142857,-0.060144,-0.017949,0.005204,226
18.620173,37.63153604,126.9701713,51.22622885,-393.31,6170.95,31.22,7.41,-0.565192308,-12.58142308,-1.026461538,-0.032879,0.018565,-0.06353,225.52
18.882242,37.63153081,126.9701779,51.23563035,-392.73,6170.37,31.23,6.07,-0.271107143,-9.565821429,-1.33925,-0.025209,-0.104478,-0.051201,225.12
19.134242,37.63152477,126.9701852,51.21494036,-392.08,6169.7,31.21,4.7,-0.17325,-6.377357143,0.358607143,-0.01866,-0.10845,-0.024522,224.81
19.391255,37.63152144,126.9701894,51.1945587,-391.71,6169.33,31.19,4.01,-0.083851852,-5.144703704,0.314888889,-0.017262,-0.073388,-0.011685,224.74
19.631254,37.63151793,126.9701936,51.18415768,-391.34,6168.94,31.18,3.36,-0.091964286,-3.783964286,0.21125,-0.019429,-0.061793,-0.002124,224.73
19.871252,37.63151504,126.9701973,51.16382706,-391.01,6168.62,31.16,2.86,-0.05462963,-3.065259259,-0.695592593,-0.011104,0.014391,0.008291,224.78
20.112254,37.63151252,126.9702005,51.14353833,-390.68,6168.29,31.13,2.54,-0.282103448,-2.710103448,0.07262069,0.014248,0.046387,0.017783,224.87
20.351253,37.63151027,126.9702033,51.12328056,-390.48,6168.09,31.12,2.23,-0.12162069,-2.580068966,-0.06237931,0.043539,0.032372,0.02899,225.05
20.591286,37.63150838,126.9702059,51.10306283,-390.25,6167.88,31.1,2.01,0.173148148,-2.636740741,-0.028148148,0.03196,0.013383,0.027056,225.29
20.831253,37.63150658,126.9702083,51.09285603,-390.04,6167.68,31.09,1.87,-0.090178571,0.503142857,-0.031285714,0.012556,0.018174,0.024958,225.47
21.71254,37.63150504,126.9702106,51.07267895,-389.84,6167.51,31.07,1.66,-0.614428571,-2.869357143,-0.028214286,0.015922,-0.000426,0.023358,225.7
21.316253,37.63150342,126.9702131,51.06249095,-389.62,6167.33,31.06,1.46,-0.094555556,0.492148148,-0.005259259,0.023669,0.005932,0.031153,226
21.551253,37.63150261,126.9702146,51.05239575,-389.49,6167.24,31.05,1.31,0.360607143,0.540071429,-0.030714286,0.019747,0.014239,0.030244,226.21
21.791253,37.63150153,126.9702161,51.05227083,-389.35,6167.12,31.05,1.17,0.295103448,0.524517241,-0.034172414,0.010536,0.01426,0.019231,226.39
22.31253,37.63150063,126.9702175,51.04216655,-389.23,6167.02,31.04,1.04,0.205107143,0.541107143,-0.004285714,0.008484,0.012152,0.011533,226.51
22.271253,37.63149973,126.9702189,51.03206226,-389.11,6166.92,31.03,0.93,0.379481481,-2.66537037,-0.020666667,0.016279,-0.00373,-0.010685,226.52
22.524254,37.63149874,126.9702202,51.02194828,-388.99,6166.81,31.02,0.93,0.090185185,-2.710962963,0.066185185,0.000419,0.008856,-0.017281,226.32
22.781262,37.63149793,126.9702212,51.02185553,-388.9,6166.72,31.02,0.99,-0.038892857,0.472571429,-0.032357143,-0.002483,0.019825,-0.012167,226.22
23.23262,37.63149703,126.9702225,51.01175186,-388.79,6166.62,31.01,0.87,-0.013407407,0.544888889,-0.050592593,0.001051,0.012441,-0.008012,226.13
23.262288,37.63149631,126.9702234,51.01166942,-388.71,6166.54,31.01,0.94,-0.021037037,0.584185185,-0.034962963,0.003537,0.01791,-0.00637,226.06
23.501289,37.6314954,126.9702245,51.00156637,-388.61,6166.44,31,0.93,0.005821429,-2.676107143,0.024285714,0.003947,0.004041,-0.004869,226.01
23.75732,37.6314945,126.9702257,51.00146331,-388.51,6166.34,31,1,0.033333333,0.44462963,-0.028111111,1.30E-05,0.016697,-0.002645,225.97
23.996834,37.63149369,126.9702268,50.99136997,-388.41,6166.25,30.99,0.85,-0.076259259,0.497481481,0.03662963,0.00017,0.009671,-0.003587,225.94
24.237873,37.63149288,126.9702278,50.99127723,-388.32,6166.16,30.99,0.93,-0.032178571,0.501642857,-0.013178571,0.012204,0.011189,-0.001983,225.91
24.478381,37.63149198,126.9702291,50.99117357,-388.21,6166.06,30.99,1,-0.000884615,0.453769231,-0.017730769,0.011761,0.009776,-0.000529,225.9
24.718388,37.63149117,126.9702301,50.98108084,-388.12,6165.97,30.98,0.84,0.017692308,0.461615385,-0.033653846,0.006974,0.006287,0.000322,225.91
24.958388,37.63149108,126.9702301,50.99107114,-388.12,6165.96,30.99,0.1,0.035777778,0.003185185,-0.028074074,-0.004257,-0.003044,0.00159,225.92
25.200007,37.63149117,126.9702301,50.98108084,-388.12,6165.97,30.98,0.05,-0.042444444,0.313407407,0.02237037,-0.001791,0.034596,0.000228,225.91
25.439511,37.63149117,126.97023,50.98108145,-388.13,6165.97,30.98,0.02,-0.099115385,0.155307692,-0.037115385,-0.000685,0.00843,-0.000486,225.91
25.680513,37.63149117,126.97023,50.98108145,-388.13,6165.97,30.98,0,0.024,0.023392857,-0.007285714,0.000643,-0.000342,-0.000275,225.91
25.925514,37.63149117,126.97023,50.98108145,-388.13,6165.97,30.98,0,0.010740741,0.011407407,0.00262963,0.00016,-0.000282,0.00029,225.91
26.159511,37.63149117,126.97023,50.98108145,-388.13,6165.97,30.98,0,0,0,0,0,0,0,225.91
26.399542,37.63149117,126.97023,50.98108145,-388.13,6165.97,30.98,0,0,0,0,0,0,0,225.91
26.640511,37.63149117,126.97023,50.98108145,-388.13,6165.97,30.98,0,0,0,0,0,0,0,225.91
26.880039,37.6314909,126.9702304,50.98104993,-388.09,6165.94,30.98,0.8,0.075666667,12.79814815,-0.17062963,0.013881,0.060917,-0.011526,225.86
27.125049,37.63148883,126.9702331,50.97081235,-387.85,6165.71,30.97,2.77,-0.130692308,10.18934615,-0.282076923,0.026717,0.07167,0.011234,225.84
27.360047,37.63148613,126.9702368,50.95050207,-387.53,6165.41,30.95,3.92,0.02825,8.477571429,-0.368892857,0.029374,0.027116,0.018927,225.95
27.600046,37.63148189,126.9702424,50.9300161,-387.03,6164.94,30.93,5.06,-1.327928571,6.614964286,-0.013464286,-0.004665,0.00946,0.145652,226.65
27.841047,37.63147712,126.9702498,50.90946297,-386.38,6164.41,30.91,6.01,-2.88562963,5.05562963,0.695666667,-0.081341,-0.04612,0.335425,228.64
28.8057,37.63147225,126.9702586,50.8888924,-385.6,6163.87,30.89,6.65,-2.712692308,3.426692308,0.397423077,-0.054634,-0.073212,0.640492,233.02
28.324081,37.63146748,126.970271,50.87831299,-384.51,6163.34,30.88,7.15,-1.528692308,2.188692308,0.098115385,-0.018994,-0.052681,0.93715,241.24
28.56108,37.63146496,126.9702806,50.85799051,-383.66,6163.06,30.86,7.46,-0.092714286,2.310785714,0.298071429,-0.038245,-0.174613,1.009597,248.31
28.80108,37.63146297,126.9702934,50.82770953,-382.53,6162.84,30.83,7.85,-2.501931034,1.607862069,2.108172414,0.137615,0.167491,1.004559,256.87
29.41087,37.6314627,126.9703068,50.81760989,-381.35,6162.81,30.82,8.16,1.336518519,2.514555556,0.105259259,-0.125612,0.018354,1.065509,265.79
29.28208,37.63146361,126.9703208,50.81763287,-380.11,6162.91,30.82,8.8,1.192538462,7.108,-1.065423077,-0.222434,-0.082522,0.941231,274.35
29.522108,37.63146604,126.9703362,50.81781374,-378.75,6163.18,30.82,9.75,-1.156555556,6.879814815,2.897740741,-0.194097,0.269914,0.740217,281.75
29.763109,37.63147,126.9703528,50.85815375,-377.29,6163.7,30.86,10.67,2.49037037,6.285222222,0.91037037,0.07129,0.01448,0.54235,287.1
30.2108,37.63147496,126.9703702,50.88859604,-375.75,6164.17,30.89,11.59,1.651814815,6.564703704,-0.080148148,0.080739,-0.042391,0.320243,290.54
30.242108,37.63148082,126.9703892,50.91912749,-374.07,6164.82,30.92,12.01,0.019148148,-3.450407407,0.493148148,0.062533,0.041562,0.139449,292.29
30.482108,37.63148676,126.9704076,50.93967265,-372.45,6165.48,30.94,11.5,-0.040518519,-3.386592593,0.587925926,0.090582,0.040305,0.055155,293
30.722108,37.63149271,126.9704252,50.96022236,-370.9,6166.14,30.96,11.37,-0.202615385,3.376538462,0.053961538,0.010633,-0.028092,0.02185,293.29
30.963162,37.63149893,126.9704434,50.96079814,-369.29,6166.83,30.96,11.91,1.940407407,3.62762963,-0.850185185,-0.02003,-0.03283,-0.022231,293.37
31.203163,37.63150433,126.9704623,50.97128365,-367.62,6167.43,30.97,12.03,-1.846666667,2.373037037,0.456037037,-0.001174,0.054141,-0.60497,289.8
31.443162,37.63150902,126.9704821,50.97168749,-365.87,6167.95,30.97,12.5,-6.155407407,2.841962963,-0.254777778,0.126092,-0.193415,-0.258549,285.75
31.683192,37.63151434,126.9705026,50.96215633,-364.06,6168.54,30.96,12.81,-1.699777778,1.648185185,0.154,0.115266,-0.14453,0.401809,286.97
31.923191,37.63152082,126.9705234,50.95275072,-362.23,6169.26,30.95,13.08,1.2428,1.8273,0.308433333,0.049217,-0.046979,0.700754,292.37
32.163733,37.63152875,126.9705435,50.94350378,-360.13,6170.32,30.94,13.44,1.688448276,2.174827586,0.074241379,0.011947,-0.028686,0.649275,298.35
32.402732,37.6315383,126.9705638,50.93443157,-358.66,6171.2,30.93,13.77,0.5368,2.688566667,-0.247033333,-0.017752,-0.021545,0.44622,303.04
32.642732,37.63154894,126.9705834,50.93547986,-356.93,6172.38,30.93,14.21,-0.198535714,3.037535714,0.017285714,0.001539,-0.011348,0.29252,306.05
32.88375,37.63156074,126.9706032,50.92665394,-355.18,6173.69,30.92,14.68,-0.155275862,3.224206897,-0.186034483,0.007012,-0.008121,0.211658,308.15
33.124751,37.63157353,126.9706234,50.91793391,-353.08,6175.37,30.91,15.19,-0.303448276,3.414482759,-0.264896552,-0.052659,0.030742,0.16138,309.73
33.365824,37.63158723,126.9706438,50.90931073,-351.6,6176.63,30.9,15.72,0.03362069,3.519724138,0.707413793,-0.018366,-0.034625,0.131603,310.95
33.605868,37.63160183,126.9706648,50.91078283,-349.75,6178.25,30.9,16.34,0.02362069,4.561689655,-0.021344828,0.031345,-0.059905,0.088747,311.96
33.846928,37.63161723,126.9706863,50.91234061,-347.85,6179.96,30.9,17.02,-0.071068966,3.960689655,0.280275862,0.056177,0.022989,0.046884,312.51
34.88971,37.63163336,126.9707084,50.92397448,-345.9,6181.75,30.91,17.58,-0.534068966,3.659862069,0.208586207,-0.058459,0.036455,0.034238,312.83
34.330016,37.63165021,126.9707313,50.91568347,-343.88,6183.62,30.9,18.15,0.176793103,3.688724138,0.460965517,-0.022988,0.037384,0.037873,313.12
34.570533,37.63166769,126.9707547,50.90745906,-341.81,6185.56,30.89,18.66,0.260366667,3.244,-1.6686,0.04389,-0.106067,0.026501,313.43
34.821534,37.63168923,126.9707834,50.91964931,-339.28,6187.95,30.9,19.2,-0.353037037,2.460259259,0.523296296,-0.026423,0.031455,0.02014,313.68
35.80074,37.63170481,126.9708039,50.93123704,-337.47,6189.68,30.91,19.45,-0.142483871,1.597064516,0.475741935,-0.040006,0.036157,0.022269,313.82
35.335585,37.63172761,126.9708337,50.94356163,-334.84,6192.21,30.92,19.67,0.050592593,0.931148148,-0.07762963,-0.02496,0.00227,0.008489,313.98
35.590585,37.63174365,126.9708547,50.94519787,-332.98,6193.99,30.92,19.84,0.141322581,3.39116129,-0.335354839,0.013855,0.010707,-0.005119,313.97
35.817584,37.63176392,126.9708812,50.94726822,-330.64,6196.24,30.92,20.4,0.04046875,3.89475,-0.75684375,0.005658,-0.027498,-0.010186,313.88
36.42642,37.63178482,126.9709087,50.94940434,-328.22,6198.56,30.92,21.03,0.06428125,3.60496875,0.176,0.005123,-0.013259,0.005478,313.89
36.283659,37.63180582,126.9709362,50.96155145,-325.79,6200.89,30.93,21.56,0.074,2.926066667,-0.2787,-0.002529,0.001029,0.004318,313.94
36.524659,37.6318269,126.9709638,50.9637096,-323.35,6203.23,30.93,21.43,0.017066667,-6.235666667,0.966166667,-0.002519,0.073371,0.007504,313.97
36.764659,37.63184735,126.9709906,50.96580525,-320.99,6205.5,30.93,20.1,-0.054517241,-9.773655172,1.020655172,0.009034,0.07292,0.003622,314.01
37.4658,37.63186591,126.9710148,50.95770858,-318.85,6207.56,30.92,18.47,0.009233333,-10.77906667,0.450433333,0.013193,-0.02721,0.00534,314.05
37.231696,37.63188294,126.971037,50.97945621,-316.89,6209.45,30.94,16.76,-0.12983871,-10.53841935,0.022709677,-0.02576,-0.051162,0.010062,314.13
37.471695,37.63189826,126.9710567,51.01103027,-315.15,6211.15,30.97,15.14,-0.10762963,-10.45092593,-0.393555556,-0.040162,0.014115,0.014412,314.23
37.714224,37.63191412,126.9710772,51.02266046,-313.34,6212.91,30.98,13.34,-0.044035714,-9.32675,0.703821429,-0.038862,0.102556,0.017378,314.38
37.951223,37.63192412,126.97109,51.02368967,-312.21,6214.02,30.98,12.15,-0.00975,-9.000714286,-0.878035714,-0.035609,0.025595,0.01571,314.49
38.191223,37.63193448,126.9711042,51.00475253,-310.96,6215.17,30.96,10.51,4.96375,-9.904928571,-0.355928571,-0.190953,-0.012874,-0.476907,312.71
38.431757,37.63194241,126.9711179,50.99555385,-309.75,6216.05,30.95,9.69,-0.831222222,-0.544111111,-0.222074074,-0.037976,-0.107451,-0.808712,306.48
38.671756,37.63194899,126.9711319,50.99620743,-308.51,6216.78,30.95,9.68,-1.71325,0.107428571,-0.365357143,0.029999,-0.11069,-0.682445,299.91
38.912757,37.63195484,126.9711469,50.99677927,-307.19,6217.43,30.95,9.68,-1.519481481,0.002407407,0.173518519,0.020316,-0.023,-0.41997,295.27
39.15333,37.63195998,126.971162,50.99727275,-305.86,6218,30.95,9.66,0.110111111,-0.129925926,-0.072592593,0.010491,-0.004614,-0.214366,292.78
39.393838,37.63196449,126.9711773,50.99769715,-304.51,6218.5,30.95,9.58,5.330555556,0.165037037,0.257296296,-0.052439,0.058049,-0.491999,290.02
39.634839,37.63196737,126.9711931,50.99794347,-303.11,6218.82,30.95,9.5,5.264074074,-4.080037037,0.114,-0.079428,0.038726,-0.977051,283.83
39.874866,37.63196782,126.9712087,51.01792701,-301.73,6218.87,30.97,9.25,0.184285714,0.520571429,-1.1195,-0.009365,-0.011767,-1.365786,273.09
40.115376,37.63196584,126.9712242,51.02764775,-300.37,6218.65,30.98,9.47,-0.88737037,4.83262963,1.391925926,-0.009594,-0.110646,-1.363358,260.89
40.354406,37.63196169,126.9712402,51.02713131,-298.95,6218.19,30.98,10.53,-1.523892857,8.203714286,0.144392857,0.00187,-0.045676,-1.078556,250.42
40.594406,37.6319553,126.9712571,51.03636751,-297.46,6217.48,30.99,11.43,-1.532964286,4.779714286,0.231678571,-0.020361,-0.048119,-0.775219,242.7
40.834406,37.63194701,126.9712743,51.04539747,-295.94,6216.56,31,12.06,-0.914777778,3.913185185,-0.18962963,-0.008335,-0.006776,-0.517214,237.33
41.74406,37.63193737,126.9712919,51.05427992,-294.39,6215.49,31.01,12.62,-0.153448276,3.603068966,0.227758621,-0.003207,-0.016577,-0.329008,233.83
41.314407,37.63192665,126.9713096,51.06304521,-292.83,6214.3,31.02,13.15,0.153285714,3.556357143,0.031107143,-0.009403,-0.014079,-0.223069,231.54
41.555406,37.63191494,126.9713275,51.06170272,-291.25,6213,31.02,13.67,0.099758621,3.378931034,-0.025827586,-0.005345,-0.006967,-0.173556,229.87
41.795406,37.63190205,126.9713461,51.06023118,-289.61,6211.57,31.02,14.22,-0.025866667,3.4207,-0.034266667,0.004972,0.000966,-0.141453,228.49
42.34406,37.63188836,126.9713651,51.06867069,-287.93,6210.05,31.03,14.76,-0.042275862,3.607517241,0.043,0.006333,0.00092,-0.113048,227.37
42.274406,37.63187421,126.9713841,51.0670622,-286.25,6208.48,31.03,15.3,-0.073206897,3.509965517,-0.072,0.001015,0.00211,-0.082787,226.52
42.514406,37.63185935,126.9714037,51.06537422,-284.52,6206.83,31.03,15.83,-0.005851852,3.577,-0.494666667,-0.007509,-0.014569,-0.051615,225.96
42.755406,37.63184394,126.9714235,51.06362771,-282.77,6205.12,31.03,16.37,0.054172414,3.467758621,0.422827586,-0.024199,-0.070631,-0.029688,225.63
42.994406,37.63182809,126.9714438,51.04183161,-280.98,6203.36,31.01,16.92,0.121,3.905214286,0.351178571,-0.067905,-0.001887,-0.023923,225.42
43.236458,37.63181151,126.9714648,51.00995587,-279.13,6201.52,30.98,17.52,0.053607143,4.441821429,-0.460178571,-0.080354,0.069137,-0.019567,225.21
43.475457,37.6317943,126.9714864,50.99801034,-277.22,6199.61,30.97,18.15,-0.286071429,4.045214286,0.020821429,0.00293,0.013361,-0.009824,225.1
43.715457,37.63177655,126.9715089,50.99600446,-275.24,6197.64,30.97,18.7,-0.104642857,3.410964286,0.355107143,0.022802,-0.020216,8.70E-05,225.06
43.955457,37.63175844,126.9715316,50.99395954,-273.23,6195.63,30.97,19.11,0.106206897,2.361241379,0.132448276,0.008342,-0.014795,0.004682,225.09
44.195457,37.63173988,126.9715551,50.98186465,-271.16,6193.57,30.96,19.41,0.054482759,1.633551724,0.025689655,0.004154,-0.004173,0.000831,225.11
44.436458,37.63172105,126.9715788,50.97974105,-269.07,6191.48,30.96,19.62,0.027964286,1.085285714,-0.178428571,0.006688,-0.002176,0.000275,225.11
44.675457,37.63170195,126.9716028,50.96758837,-266.95,6189.36,30.95,19.74,-0.039666667,0.598481481,-0.125814815,0.017831,-0.00169,-0.001915,225.1
44.931009,37.63167961,126.971631,50.96507151,-264.46,6186.88,30.95,19.81,0.073555556,0.258481481,0.085444444,0.00345,-0.00215,-0.000902,225.09
45.18652,37.63166393,126.9716508,50.96330668,-262.71,6185.14,30.95,19.83,0.132740741,0.115925926,0.13737037,-0.008867,0.00013,-0.002031,225.08
45.426518,37.63164456,126.9716751,50.96112823,-260.57,6182.99,30.95,19.52,0.1858,-5.340866667,0.897433333,-0.005412,-0.037928,-0.009827,225.02
45.665519,37.63162582,126.9716985,50.9590221,-258.5,6180.91,30.95,18.51,-0.045724138,-7.284482759,0.735448276,0.005703,-0.040163,-0.0193,224.89
45.905518,37.63160834,126.9717203,50.95705937,-256.58,6178.97,30.95,17.34,0.0068,-7.831,-0.111933333,-0.007799,-0.017436,-0.021746,224.71
46.145518,37.63159231,126.9717401,50.94526002,-254.83,6177.19,30.94,16.16,0.391964286,-8.110321429,1.205785714,-0.084582,-0.03422,-0.024419,224.53
46.38555,37.63157726,126.9717583,50.93357401,-253.22,6175.52,30.93,14.98,-0.379448276,-7.623827586,-0.324724138,0.042875,0.100164,-0.021385,224.31
46.626551,37.6315633,126.9717753,50.94200968,-251.72,6173.97,30.94,13.84,-0.474285714,-7.3115,0.232035714,0.111658,0.041039,-0.008685,224.16
46.86555,37.63155059,126.971791,50.97058665,-250.34,6172.56,30.97,12.76,0.162285714,-7.112392857,0.126142857,0.052698,0.005214,0.00476,224.15
47.106553,37.63153879,126.9718055,50.99926518,-249.06,6171.25,31,11.74,0.376814815,-6.782703704,-0.081703704,-0.012393,-0.006574,-0.000378,224.18
47.346602,37.63152789,126.9718186,51.01804593,-247.9,6170.04,31.02,10.79,0.044678571,-6.064928571,-0.054428571,-0.010277,-0.002324,-0.011523,224.12
47.586627,37.63151798,126.9718305,51.03693807,-246.85,6168.94,31.04,9.92,-0.072535714,-5.594678571,-0.110428571,-0.001574,0.002828,-0.013665,224.01
47.827654,37.63150888,126.9718415,51.05592095,-245.88,6167.93,31.06,9.12,-0.035481481,-5.218259259,-0.101407407,-0.002884,0.005017,-0.010235,223.91
48.67653,37.6315005,126.9718516,51.07498478,-244.99,6167,31.08,8.38,-0.019148148,-4.787,-0.103740741,-0.003527,0.00502,-0.006692,223.84
48.307653,37.63149275,126.9718609,51.08411943,-244.17,6166.14,31.09,7.69,-0.023172414,-4.848965517,-0.071655172,-0.003942,0.002545,-0.004285,223.79
48.548202,37.63148581,126.9718691,51.09334498,-243.44,6165.37,31.1,6.89,0.130115385,-5.907730769,0.138115385,-0.001063,-0.065091,-0.003695,223.77
48.789202,37.63147951,126.9718767,51.09264086,-242.77,6164.67,31.1,6.16,-0.019571429,-3.423571429,0.159392857,0.010839,-0.058939,-0.001594,223.76
49.3022,37.63147365,126.9718837,51.09198724,-242.15,6164.02,31.1,6.08,-0.035269231,0.129769231,0.29,0.025535,-0.036931,-0.00514,223.74
49.269219,37.63146788,126.9718907,51.08134382,-241.54,6163.38,31.09,6.1,0.086230769,0.140423077,-0.166615385,0.004317,0.009375,-0.006928,223.69
49.524219,37.63146095,126.9718988,51.0705704,-240.82,6162.61,31.08,6.12,-0.37284,0.10248,0.02052,0.017541,0.00234,0.002618,223.65
49.650219,37.63145626,126.9719046,51.06004729,-240.2,6161.98,31.07,6.14,-0.51336,0.12092,-0.51396,0.057497,0.009374,0.019726,223.73
49.921267,37.63144987,126.9719124,51.03933343,-239.62,6161.38,31.05,5.32,0.167555556,-6.782296296,0.427666667,0.008793,-0.050482,0.036932,224.06
50.55264,37.63144572,126.9719175,51.02887089,-239.07,6160.82,31.04,5.47,0.362653846,2.002538462,-0.179846154,-0.033381,0.012434,0.032562,224.31
50.320335,37.63144068,126.9719237,51.01830782,-238.62,6160.36,31.03,5.76,-0.133576923,2.094653846,-0.246,0.005751,0.028948,0.023116,224.51
50.559843,37.63143518,126.9719305,51.00769454,-238.02,6159.75,31.02,6.05,-0.11044,2.02052,-0.23768,0.015941,0.013502,0.024177,224.7
50.799842,37.63142923,126.971938,50.98703072,-237.36,6159.09,31,6.64,-0.031259259,4.141666667,-0.014037037,-0.012813,0.011944,0.030042,224.92
51.55381,37.63142293,126.971946,50.96632645,-236.65,6158.39,30.98,7.19,-0.63272,3.57696,-0.2924,-0.013553,-0.007281,0.040029,225.19
51.295351,37.63141626,126.9719548,50.94558139,-235.88,6157.65,30.96,7.62,-2.411964286,2.225178571,0.496785714,-0.038971,-0.108954,0.191764,226.11
51.551385,37.63140986,126.9719643,50.89486299,-235.04,6156.94,30.91,7.94,-1.6986,1.82128,2.04784,0.094651,-0.235444,0.322767,228.55
51.790351,37.63140383,126.9719749,50.85417983,-234.1,6156.27,30.87,8.06,-2.9795,-0.298730769,1.177,-0.028863,-0.059085,0.6655,232.77
52.46351,37.63139878,126.9719865,50.82360044,-233.08,6155.71,30.84,7.97,0.330576923,-0.283692308,-1.326384615,-0.120335,0.076919,0.882556,239.58
52.301351,37.63139482,126.9719982,50.78313705,-232.05,6155.27,30.8,7.94,-2.08244,-0.54568,-0.701,-0.119568,0.224061,0.871979,246.86
52.556382,37.63139221,126.9720104,50.76281721,-230.97,6154.98,30.78,7.88,-1.13675,-0.555,1.637416667,0.083518,0.038303,0.795336,253.47
52.811409,37.63139086,126.9720229,50.78263233,-229.87,6154.83,30.8,7.84,1.006153846,0.027538462,-0.333538462,0.051178,-0.090676,0.791015,259.93
53.66415,37.63139032,126.9720354,50.7825344,-228.76,6154.77,30.8,7.83,0.919875,0.189791667,-0.252958333,0.020248,-0.016947,0.713653,266.11
53.321416,37.63139059,126.9720481,50.78252342,-227.64,6154.8,30.8,7.87,1.28125,0.330875,0.009583333,-0.025733,0.06035,0.535917,271.12
53.577931,37.6313914,126.9720607,50.77257106,-226.53,6154.89,30.79,8.22,1.47526087,7.133130435,-0.514086957,-0.080939,0.0078,0.349055,274.53
53.831899,37.63139266,126.9720745,50.7726634,-225.31,6155.03,30.79,9.19,0.686115385,6.9925,-0.542884615,-0.07722,0.032766,0.194422,276.59
54.87024,37.63139428,126.9720899,50.76278979,-223.95,6155.21,30.78,10.25,0.471583333,7.758791667,0.011875,-0.021841,0.009884,0.08171,277.61
54.342993,37.63139608,126.9721071,50.77293025,-222.43,6155.41,30.79,11.26,0.44956,6.71328,0.55372,0.052618,-0.052084,0.021303,277.95
54.598515,37.63139807,126.9721257,50.77308629,-220.79,6155.63,30.79,11.94,-0.12472,-3.3276,0.64924,0.075184,0.009384,-0.011157,277.95
54.854516,37.63140014,126.9721443,50.77325244,-219.15,6155.86,30.79,11.45,-4.30468,-3.91176,0.32408,0.081489,-0.072258,0.103652,278.02
55.110515,37.63140293,126.9721616,50.77350021,-217.36,6156.24,30.79,10.95,-3.5682,0.12268,0.23548,0.023062,-0.076829,0.565341,280.99
55.364594,37.63140717,126.9721784,50.77390496,-216.14,6156.64,30.79,10.98,-0.88192,0.19068,-0.25288,-0.032448,-0.049489,0.931104,287.4
55.621566,37.63141293,126.9721943,50.77447737,-214.49,6157.41,30.8,11.15,1.91108,1.93496,-0.2312,-0.084255,0.000353,0.965813,295.32
55.876565,37.63142041,126.97221,50.78523447,-213.35,6158.11,30.8,11.49,1.95948,2.82844,-0.495,-0.093998,0.017226,0.751117,302.3
56.117621,37.63142906,126.9722253,50.79611922,-211.77,6159.25,30.81,11.92,0.98604,3.2118,-0.0708,-0.063903,0.020727,0.493299,307.17
56.370644,37.63143888,126.9722406,50.80713032,-210.65,6160.16,30.82,12.41,0.43184,3.73432,-0.37944,-0.027605,0.004065,0.297655,310.24
56.614665,37.63145177,126.9722591,50.80846215,-209.02,6161.59,30.82,13.07,-0.103214286,3.853392857,0.252821429,0.0007,0.014401,0.146703,312.25
56.866684,37.63146132,126.9722722,50.80945143,-207.86,6162.65,30.82,13.53,-0.194666667,3.828916667,-0.529583333,0.001981,0.011788,0.093312,313
57.122683,37.63147348,126.9722884,50.81071345,-206.43,6164,30.82,14.06,-0.103875,3.783708333,0.001791667,0.003867,0.002196,0.064381,313.61
57.377684,37.63148592,126.9723047,50.81200485,-204.99,6165.38,30.82,14.58,0.061125,3.911041667,-0.028333333,0.010845,-0.002515,0.051614,314.05
57.633713,37.63149898,126.9723216,50.81336315,-203.5,6166.83,30.82,15.11,0.04448,3.69392,-0.04672,0.010879,2.00E-05,0.038287,314.4
57.891265,37.63151259,126.9723389,50.80477908,-201.97,6168.34,30.81,15.62,-0.032391304,3.675173913,-0.064347826,0.008456,4.80E-05,0.024432,314.64
58.129809,37.63152691,126.9723572,50.80627083,-200.36,6169.93,30.81,16.12,-0.052583333,3.636458333,-0.494291667,-0.002047,0.007034,0.014514,314.79
58.38684,37.63154169,126.9723757,50.80781097,-198.72,6171.57,30.81,16.63,-0.010375,3.653125,0.238625,0.010254,0.016862,0.006351,314.87
58.641362,37.631557,126.972395,50.79940836,-197.02,6173.27,30.8,17.13,-0.015291667,3.647958333,-0.028833333,-0.009312,-0.001178,0.005946,314.92
58.896866,37.63157259,126.9724147,50.80103455,-195.28,6175,30.8,17.63,0.08772,3.48116,0.31048,-0.016664,-0.008771,0.003731,314.96
59.152392,37.63158881,126.972435,50.80272817,-193.49,6176.8,30.8,18.13,-0.12556,3.51728,-0.41332,-0.037674,-0.04412,0.005486,315
59.391391,37.63160539,126.9724557,50.80446046,-191.66,6178.64,30.8,18.62,0.100230769,3.209423077,0.942076923,-0.034083,0.044208,0.006252,315.06
59.646393,37.63162242,126.972477,50.79624092,-189.78,6180.53,30.79,19.01,0.065583333,2.53375,0.78675,0.002877,0.029366,0.0005,315.1
59.901392,37.63163963,126.9724987,50.78804106,-187.87,6182.44,30.78,19.31,0.17096,1.89864,-0.77796,0.028187,-0.027321,0.003854,315.13
0.142421,37.63165765,126.9725212,50.78992753,-185.88,6184.44,30.78,19.54,-0.107111111,1.288925926,0.051555556,0.037379,0.005608,-0.011536,315.07
0.398967,37.63167549,126.9725437,50.78179581,-183.89,6186.42,30.77,19.69,-0.008615385,0.802423077,-0.067076923,0.047439,-0.011106,-0.013051,314.95
0.638467,37.63169351,126.9725664,50.78368449,-181.89,6188.42,30.77,19.77,-0.44288,0.45232,-0.27592,-0.059473,0.01594,0.008266,314.96
0.878474,37.63171162,126.9725892,50.79558387,-179.88,6190.43,30.78,19.81,-0.4488,0.11972,-2.3992,-0.086789,-0.043519,-0.006765,314.94
1.134503,37.63172955,126.9726116,50.80746589,-177.9,6192.42,30.79,19.84,0.478291667,0.098791667,0.34575,0.015634,0.043046,-0.000213,314.94
1.391505,37.63174757,126.9726343,50.80935833,-175.9,6194.42,30.79,19.84,0.043346154,0.001115385,-0.093153846,-0.001346,0.009489,-0.012547,314.88
1.629474,37.63176559,126.972657,50.81125176,-173.89,6196.42,30.79,19.84,-0.0624,-0.048,-0.17428,0.005706,-0.005779,-0.01422,314.76
1.885474,37.63178325,126.9726794,50.81310854,-171.92,6198.38,30.79,19.83,-0.0562,-0.07424,-0.03436,0.007605,-0.003452,-0.009126,314.67
2.12453,37.63180127,126.9727022,50.8050042,-169.9,6200.38,30.78,19.82,0.038192308,-0.076846154,-0.025846154,0.005711,-0.002113,-0.002058,314.63
2.36453,37.63181965,126.9727258,50.80693857,-167.82,6202.42,30.78,19.81,0.113083333,-0.064375,-0.087291667,0.001043,-0.002733,-0.003649,314.62
2.604559,37.63183776,126.9727487,50.80884655,-165.8,6204.43,30.78,19.8,0.016461538,-0.042692308,0.001115385,0.001763,0.001297,-0.009709,314.56
2.84453,37.63185587,126.9727719,50.81075504,-163.75,6206.44,30.78,19.8,0.03908,-0.0328,0.00712,0.01067,-0.000234,-0.014242,314.45
3.8453,37.63187416,126.9727954,50.81268384,-161.68,6208.47,30.78,19.8,-0.195384615,0.035423077,0.110269231,0.003162,-0.00602,-0.00741,314.36
3.325581,37.63189245,126.9728189,50.80461371,-159.6,6210.5,30.77,19.8,-0.088148148,-0.000962963,0.116740741,0.017254,0.006107,0.009154,314.36
3.56558,37.63191065,126.9728423,50.80653563,-157.54,6212.52,30.77,19.8,0.125076923,0.012115385,-1.067,0.033133,0.000747,0.020812,314.51
3.80558,37.63192948,126.9728663,50.80852581,-155.42,6214.61,30.77,19.8,-0.317925926,0.012777778,-0.892074074,-0.028828,-0.019975,0.019494,314.68
4.4658,37.63194795,126.9728896,50.8204797,-153.36,6216.66,30.78,19.8,-0.143115385,0.042269231,-0.093384615,-0.058242,0.005361,0.018254,314.85
4.285629,37.63196669,126.9729133,50.82246356,-151.27,6218.74,30.78,19.81,0.215259259,-0.008555556,-0.038814815,0.008017,0.006052,0.013474,315
4.526629,37.63198561,126.9729371,50.8244681,-149.17,6220.84,30.78,19.8,0.02437037,-0.023740741,-0.031407407,0.009751,0.003025,0.003318,315.06
4.767723,37.63200453,126.9729606,50.8264745,-147.09,6222.94,30.78,19.8,-0.114192308,-0.032192308,-0.003730769,-0.011952,0.002612,-0.004854,315.04
5.978,37.63202336,126.9729844,50.82847202,-144.99,6225.03,30.78,19.79,-0.061035714,-0.009464286,-0.042392857,-0.018676,0.003836,-0.004065,315
5.251831,37.63204255,126.9730084,50.83050964,-142.87,6227.16,30.78,19.79,0.298321429,0.002857143,-0.309571429,0.032149,-0.031012,-0.001236,314.97
5.491861,37.63206138,126.9730322,50.83250993,-140.77,6229.25,30.78,19.8,0.019357143,0.017785714,0.595392857,0.034398,0.028445,-0.009353,314.93
5.732369,37.6320803,126.9730561,50.83452119,-138.66,6231.35,30.78,19.8,-0.344111111,0.009592593,-0.112296296,-0.038309,0.002472,-0.012491,314.82
5.972369,37.6320994,126.9730802,50.83655322,-136.54,6233.47,30.78,19.8,-0.677285714,-0.027928571,0.038607143,0.00536,-0.001265,0.029729,314.83
6.21337,37.63211869,126.9731043,50.82860607,-134.41,6235.61,30.77,19.8,0.514733333,0.013233333,0.031733333,-0.024117,0.025294,0.046996,315.28
6.437413,37.63213815,126.9731284,50.82067997,-132.28,6237.77,30.76,19.8,-0.225275862,0.031517241,-0.476448276,-0.053554,-0.016056,0.015203,315.53
6.678921,37.63215779,126.9731525,50.81277494,-130.15,6239.95,30.75,19.81,0.276275862,0.07262069,-1.321413793,-0.006057,-0.029574,-0.000125,315.59
6.927947,37.63218049,126.9731806,50.8251981,-127.67,6242.47,30.76,19.81,-0.013222222,0.074111111,0.216814815,0.049842,-0.003138,-0.0089,315.52
7.1905,37.63219626,126.9732002,50.82688185,-125.94,6244.22,30.76,19.82,-0.219814815,-0.009814815,0.215777778,0.024457,0.018551,-0.015968,315.42
7.429455,37.63221536,126.973224,50.82892279,-123.84,6246.34,30.76,19.81,-0.203222222,-0.042407407,0.055703704,-0.016606,0.006971,-0.009399,315.3
7.669578,37.63223446,126.9732477,50.83096531,-121.75,6248.46,30.76,19.81,0.008793103,-0.037482759,0.020689655,-0.005678,-0.003411,-0.000206,315.28
7.913578,37.6322569,126.9732756,50.83336599,-119.29,6250.95,30.76,19.8,0.049642857,-0.039107143,-0.014678571,0.001069,-0.000145,-0.000636,315.28
8.150579,37.63227258,126.9732951,50.8350447,-117.57,6252.69,30.76,19.79,0.011814815,-0.032814815,-0.032518519,0.000757,-0.000159,-0.004291,315.25
8.389638,37.63229186,126.9733192,50.83711034,-115.44,6254.83,30.76,20.18,-0.021428571,3.453214286,-0.487785714,0.000503,-0.018517,-0.005086,315.21
8.631637,37.63231204,126.9733443,50.83927421,-113.22,6257.07,30.76,20.69,-0.031275862,3.235965517,-0.275241379,-8.00E-06,-0.008683,-0.00459,315.16
8.869636,37.63233267,126.9733701,50.84148799,-110.95,6259.36,30.76,21.19,0.05237037,3.244111111,-0.030333333,1.80E-05,-0.000659,-0.001246,315.14
9.119147,37.63235727,126.9734009,50.84412901,-108.23,6262.09,30.76,21.74,-0.002107143,2.904071429,0.27225,-0.000716,-0.008948,-0.002445,315.12
9.381732,37.63237484,126.9734229,50.86601693,-106.29,6264.04,30.78,22.09,0.161142857,2.855785714,-1.780142857,0.025628,-0.186876,-0.002338,315.09
9.627704,37.63240015,126.9734547,50.95873928,-103.48,6266.85,30.87,22.6,0.075592593,2.779740741,0.357,0.060356,0.089132,-0.003308,315.02
9.891731,37.63241826,126.9734775,51.01068811,-101.47,6268.86,30.92,22.9,-0.230769231,2.584192308,0.133,-0.004232,0.159033,-0.009231,314.96
10.131719,37.63244025,126.9735051,51.03305559,-99.03,6271.3,30.94,23.39,-0.172407407,3.381111111,-0.672925926,-0.034662,0.010843,-0.007494,314.89
10.372735,37.63246295,126.9735338,51.02550251,-96.5,6273.82,30.93,23.85,-0.308214286,2.943357143,-0.509428571,-0.046979,-0.029711,0.00126,314.85
10.616735,37.63248971,126.9735674,51.01838911,-93.53,6276.79,30.92,24.33,0.1882,2.56088,0.2364,-0.002155,0.00408,0.003038,314.9
10.852735,37.63250926,126.973592,51.02049993,-91.36,6278.96,30.92,24.27,0.041535714,-3.646714286,0.88875,0.004039,0.036909,-0.001567,314.9
11.94288,37.63253206,126.9736208,51.02296266,-88.82,6281.49,30.92,23.72,-0.069037037,-3.784185185,0.881333333,0.007297,0.038406,0.026462,315
11.334279,37.63255404,126.9736483,51.02533996,-86.39,6283.93,30.92,22.53,0.112392857,-13.58953571,1.301214286,-0.009684,0.064181,0.005612,315.15
11.574279,37.63257468,126.9736741,51.02757281,-84.11,6286.22,30.92,20.94,-0.114241379,-7.426413793,0.310793103,-0.005774,0.015015,-0.013978,315.1
11.820305,37.63259774,126.973703,51.03007085,-81.56,6288.78,30.92,19.98,-0.14696,-3.75544,-0.93472,0.000477,-0.045901,-0.016486,314.92
12.55335,37.63261351,126.973723,51.02177947,-79.8,6290.53,30.91,19.94,-0.036703704,-0.298962963,-1.131592593,0.001181,-0.056145,-0.008487,314.82
12.295304,37.63263243,126.9737467,51.02383122,-77.7,6292.63,30.91,19.89,0.109888889,-0.285814815,-0.201333333,0.004103,-0.006674,0.005706,314.83
12.535304,37.63265135,126.9737706,51.02588425,-75.59,6294.73,30.91,19.85,0.07775,-0.224107143,0.042285714,0.000609,0.002373,0.005299,314.88
12.775304,37.63267063,126.973795,51.02797781,-73.44,6296.87,30.91,19.82,-0.000857143,-0.182964286,-0.021821429,0.001631,0.001534,0.001557,314.91
13.23305,37.6326927,126.9738228,51.03037654,-70.99,6299.32,30.91,19.79,-0.00816,-0.14588,0.01224,0.000418,0.000584,0.000691,314.92
13.288365,37.63270811,126.9738422,51.03205177,-69.27,6301.03,30.91,19.78,-0.031111111,-0.119888889,-0.007888889,0.001607,0.000805,0.001674,314.92
13.527428,37.63272667,126.9738656,51.03407123,-67.21,6303.09,30.91,19.76,-0.020296296,-0.097888889,-0.016074074,0.001206,0.000915,0.005674,314.96
13.754428,37.6327455,126.9738891,51.03612156,-65.13,6305.18,30.91,19.75,0.005481481,-0.081259259,0.047592593,0.00146,-0.000566,0.007929,315.02
13.993428,37.63276532,126.9739141,51.03828118,-62.93,6307.38,30.91,19.74,0.002642857,-0.064464286,-0.036928571,0.000564,8.40E-05,0.00854,315.09
14.233459,37.63278343,126.9739367,51.0402557,-60.93,6309.39,30.91,19.73,-0.07244,-0.048,-0.08928,0.001605,0.00066,0.009129,315.16
14.473471,37.63280163,126.9739594,51.04224142,-58.93,6311.41,30.91,19.72,-0.25052,-0.02372,0.30932,-0.005118,0.005173,0.006062,315.23
14.730502,37.63281947,126.9739816,51.03418905,-56.97,6313.39,30.9,19.72,-0.184217391,-8.70E-05,0.273826087,-0.006217,0.00411,0.00498,315.29
14.969471,37.63283749,126.9740039,51.03615767,-55,6315.39,30.9,19.72,0.040125,-0.018375,-0.002083333,-0.00121,0.000115,0.004528,315.33
15.227051,37.63285524,126.974026,51.03809789,-53.05,6317.36,30.9,19.71,-0.012434783,-0.025434783,0.080652174,-0.002592,0.001335,0.001292,315.35
15.48201,37.63287299,126.974048,51.0400394,-51.11,6319.33,30.9,19.71,-0.007833333,-0.025208333,-0.024416667,-0.000954,-0.000442,0.000726,315.36
15.738011,37.63289083,126.9740702,51.04199189,-49.15,6321.31,30.9,19.71,-0.00375,-0.022875,0.001666667,-0.000287,-1.80E-05,0.000485,315.36
15.97552,37.63290867,126.9740923,51.04394567,-47.2,6323.29,30.9,19.7,0.080916667,-0.019291667,-0.00125,-0.000834,-9.00E-06,-0.001565,315.36
16.23352,37.63292669,126.9741146,51.04592042,-45.23,6325.29,30.9,19.7,-0.001538462,-0.014807692,-0.090153846,-0.002002,-0.000198,-0.007252,315.32
16.487521,37.63294426,126.9741365,51.04784693,-43.3,6327.24,30.9,19.7,-0.05075,-0.012791667,0.015625,-0.000604,-0.000548,-0.009815,315.24
16.742522,37.63296183,126.9741584,51.04977455,-41.36,6329.19,30.9,19.7,-0.03225,-0.004708333,0.012125,-0.0013,-0.001031,-0.007253,315.18
16.997521,37.63297931,126.9741803,51.05169347,-39.43,6331.13,30.9,19.7,0.000869565,-0.007782609,-0.031173913,0.001189,0.000331,-0.006117,315.13
17.253097,37.63299679,126.974202,51.05361362,-37.51,6333.07,30.9,19.7,-0.018608696,-0.007913043,-0.055130435,-4.60E-05,-0.00036,-0.003848,315.09
17.515112,37.63301706,126.9742275,51.05584193,-35.26,6335.32,30.9,19.7,-0.079541667,-0.00475,-0.026833333,4.50E-05,0.000348,-0.005148,315.04
17.809126,37.63303202,126.9742463,51.05748695,-33.6,6336.98,30.9,19.69,0.007041667,-0.00525,0.059208333,0.00098,0.001171,-0.001271,315.02
18.642,37.63304985,126.9742687,51.05945027,-31.63,6338.96,30.9,19.69,0.012565217,-0.005217391,0.01026087,0.000694,0.000558,-0.000169,315.02
18.304215,37.6330676,126.974291,51.05140484,-29.66,6340.93,30.89,19.69,0.009,-0.004375,-0.000625,0.000704,4.00E-05,0.000221,315.02
18.562341,37.63308508,126.9743128,51.05333087,-27.73,6342.87,30.89,19.69,0.028086957,-0.003869565,-0.005695652,0.000596,8.00E-05,-0.000669,315.02
18.820396,37.63310292,126.9743354,51.05529775,-25.74,6344.85,30.89,19.69,-0.008769231,-0.003230769,0.038884615,0.001366,0.000514,-0.002241,315.01
19.73912,37.63312058,126.9743575,51.05724605,-23.79,6346.81,30.89,19.69,-0.01575,-0.002833333,0.061916667,-0.001491,-0.000422,-0.001247,314.99
19.33042,37.63313833,126.9743798,51.05920546,-21.82,6348.78,30.89,19.69,0.00724,-0.0022,0.00076,-0.000213,0.000139,-0.000202,314.99
19.584421,37.63315617,126.9744021,51.06117608,-19.85,6350.76,30.89,19.7,0.0395,0.144583333,-0.090583333,-0.001594,0.001238,-0.000754,314.98
19.855961,37.63317383,126.9744243,51.06312798,-17.89,6352.72,30.89,19.77,0.031916667,0.808333333,-0.084833333,0.005005,-0.005091,0.000231,314.98
20.110471,37.6331914,126.9744464,51.06507111,-15.94,6354.67,30.89,19.94,-0.005916667,1.359791667,-0.15675,0.002766,-0.005323,0.000382,314.98
20.364472,37.63320933,126.9744691,51.06705531,-13.94,6356.66,30.89,20.17,0.07488,1.66956,-0.114,-0.000186,-0.004292,-0.000501,314.98
20.621472,37.63322762,126.974492,51.06908071,-11.92,6358.69,30.89,20.47,-0.05296,2.06648,0.01404,0.003186,-0.00226,0.002012,314.98
20.874472,37.63324627,126.9745154,51.07114734,-9.85,6360.76,30.89,20.78,-0.015521739,2.27673913,-0.037521739,0.00161,-0.003715,0.007191,315.03
21.129472,37.63326465,126.9745384,51.07318534,-7.82,6362.8,30.89,21.09,0.026045455,2.360590909,-0.015636364,0.002746,-0.000887,0.010547,315.1
21.387018,37.63328348,126.974562,51.07527464,-5.74,6364.89,30.89,21.4,0.076391304,2.217434783,-0.038130435,5.30E-05,-0.000945,0.008467,315.18
21.640563,37.63330267,126.9745859,51.07740534,-3.63,6367.02,30.89,21.7,-0.0245,2.187333333,-0.020708333,-0.00023,-0.000455,0.002276,315.21
21.880562,37.6333224,126.9746106,51.07959752,-1.45,6369.21,30.89,22.01,-0.01812,2.12804,-0.01128,-0.000251,-0.000574,0.001076,315.23
22.135563,37.63334258,126.9746357,51.08184131,0.77,6371.45,30.89,22.33,0.044791667,2.298041667,0.017416667,0.001069,-0.002105,-0.00023,315.23
22.391593,37.63336249,126.9746605,51.08405657,2.96,6373.66,30.89,22.65,0.037478261,2.239434783,-0.101478261,0.000495,-0.001743,0.002865,315.24
22.645654,37.63338259,126.9746855,51.08629341,5.16,6375.89,30.89,22.96,-0.192173913,2.215217391,-0.133521739,0.003598,0.001797,0.003992,315.26
22.900653,37.63340331,126.9747113,51.08860209,7.44,6378.19,30.89,23.26,-0.0022,2.06336,-0.02464,-0.000905,-0.000664,-0.002892,315.26
23.156654,37.63342403,126.9747371,51.08091243,9.72,6380.49,30.88,23.56,-0.031391304,2.077913043,-0.053869565,-0.001031,-0.000183,-0.005108,315.23
23.414179,37.63344836,126.9747676,51.08362668,12.41,6383.19,30.88,23.9,0.441913043,2.225304348,1.225304348,0.083487,0.040583,-0.004147,315.18
23.667179,37.63346584,126.9747895,51.08557832,14.34,6385.13,30.88,24.15,0.022173913,2.584304348,-1.606869565,0.054827,-0.064518,-0.009413,315.13
23.92918,37.63349061,126.9748205,51.08834684,17.08,6387.88,30.88,24.63,-0.282521739,2.846869565,0.05626087,-0.071727,-0.000849,0.005122,315.13
24.63219,37.63350872,126.974843,51.09037184,19.07,6389.89,30.88,24.91,0.066391304,2.393652174,0.332521739,-0.033469,0.019353,0.005986,315.18
24.321448,37.63353431,126.974875,51.0932352,21.89,6392.73,30.88,25.28,0.083590909,2.317636364,0.050681818,0.014595,0.00799,0.004045,315.23
24.453446,37.63355278,126.974898,51.0953036,24.3,6395.16,30.88,25.53,-0.038045455,2.230727273,0.005727273,0.00389,0.000406,0.002444,315.25
24.704483,37.63357729,126.9749285,51.09805002,26.61,6397.5,30.88,25.85,-0.3439375,2.0766875,0.14409375,-0.003752,0.003198,-0.002353,315.26
24.944484,37.6336027,126.9749602,51.10089989,29.41,6400.32,30.88,26.18,0.043115385,2.149307692,-0.0365,0.001622,-0.000803,0.002215,315.27
25.184497,37.63362747,126.974991,51.10368135,32.13,6403.07,30.88,26.49,-0.024892857,1.892107143,0.081714286,0.004742,-0.000277,0.001302,315.28
25.423497,37.63365324,126.9750231,51.10657656,34.96,6405.93,30.88,26.8,-0.184576923,2.126769231,0.368923077,-0.009103,0.005972,-0.003429,315.28
25.694498,37.63367874,126.9750548,51.10944391,37.76,6408.76,30.88,27.12,-0.039259259,2.219592593,-0.021888889,-0.002236,-0.007712,-0.002555,315.27
25.906498,37.63370469,126.9750872,51.11236453,40.62,6411.64,30.88,27.43,-0.075846154,2.081230769,0.059769231,0.011659,0.005958,-0.006881,315.22
26.117005,37.63373451,126.9751243,51.11572437,43.9,6414.95,30.88,27.78,0.059583333,1.998916667,0.031583333,0.02304,0.000623,-0.00436,315.16
26.360055,37.63376028,126.9751566,51.11863029,46.75,6417.81,30.88,28.06,-0.04592,1.9754,0.01716,0.018872,0.00057,-0.005495,315.12
26.62709,37.63378181,126.9751836,51.12106061,49.13,6420.2,30.88,28.3,-0.00464,1.9604,-0.03104,0.017853,0.000238,-0.004159,315.09
26.851091,37.63380893,126.9752176,51.12412395,52.13,6423.21,30.88,28.59,-0.032857143,1.858714286,0.105107143,0.004752,0.005648,-0.002824,315.05
27.9109,37.63383587,126.9752513,51.12716975,55.11,6426.2,30.88,28.87,0.05076,1.90152,-0.1272,-0.004516,-0.010608,-0.001178,315.04
